[
            {
                "pageid": 46599,
                "ns": 0,
                "title": "Leiden",
                "lat": 52.166666666667,
                "lon": 4.4833333333333,
                "dist": 0,
                "primary": ""
            },
            {
                "pageid": 13369325,
                "ns": 0,
                "title": "Leiden Centraal railway station",
                "lat": 52.166388888889,
                "lon": 4.4822222222222,
                "dist": 81.8,
                "primary": ""
            },
            {
                "pageid": 46853123,
                "ns": 0,
                "title": "Museum De Valk",
                "lat": 52.1645,
                "lon": 4.48643,
                "dist": 320.4,
                "primary": ""
            },
            {
                "pageid": 490672,
                "ns": 0,
                "title": "Leiden University Medical Center",
                "lat": 52.165833333333,
                "lon": 4.4775,
                "dist": 408.5,
                "primary": ""
            },
            {
                "pageid": 25081996,
                "ns": 0,
                "title": "Museum De Lakenhal",
                "lat": 52.163055555556,
                "lon": 4.4875,
                "dist": 492,
                "primary": ""
            },
            {
                "pageid": 34017012,
                "ns": 0,
                "title": "Oudt Leyden",
                "lat": 52.162188888889,
                "lon": 4.4845611111111,
                "dist": 504.9,
                "primary": ""
            },
            {
                "pageid": 2314553,
                "ns": 0,
                "title": "Museum Boerhaave",
                "lat": 52.161388888889,
                "lon": 4.4888888888889,
                "dist": 698.6,
                "primary": ""
            },
            {
                "pageid": 2995609,
                "ns": 0,
                "title": "Naturalis Biodiversity Center",
                "lat": 52.164722222222,
                "lon": 4.4733333333333,
                "dist": 715.5,
                "primary": ""
            },
            {
                "pageid": 23714894,
                "ns": 0,
                "title": "Vrouwekerk",
                "lat": 52.160833333333,
                "lon": 4.4897222222222,
                "dist": 781.5,
                "primary": ""
            },
            {
                "pageid": 15215618,
                "ns": 0,
                "title": "University of Applied Sciences Leiden",
                "lat": 52.167222222222,
                "lon": 4.4716666666667,
                "dist": 798.1,
                "primary": ""
            },
            {
                "pageid": 28276778,
                "ns": 0,
                "title": "Groenoordhallen",
                "lat": 52.169722222222,
                "lon": 4.4941666666667,
                "dist": 813.2,
                "primary": ""
            },
            {
                "pageid": 20013571,
                "ns": 0,
                "title": "Bibliotheca Thysiana",
                "lat": 52.159166666667,
                "lon": 4.4844444444444,
                "dist": 837.4,
                "primary": ""
            },
            {
                "pageid": 29287959,
                "ns": 0,
                "title": "Leidse Hout",
                "lat": 52.174444444444,
                "lon": 4.4811111111111,
                "dist": 878,
                "primary": ""
            },
            {
                "pageid": 29111437,
                "ns": 0,
                "title": "Gemeenlandshuis van Rijnland",
                "lat": 52.1593,
                "lon": 4.4885,
                "dist": 891.8,
                "primary": ""
            },
            {
                "pageid": 1448370,
                "ns": 0,
                "title": "Royal Netherlands Institute of Southeast Asian and Caribbean Studies",
                "lat": 52.158333333333,
                "lon": 4.4825,
                "dist": 928.4,
                "primary": ""
            },
            {
                "pageid": 26063978,
                "ns": 0,
                "title": "Weigh House (Leiden)",
                "lat": 52.1594,
                "lon": 4.4904,
                "dist": 940.9,
                "primary": ""
            },
            {
                "pageid": 15318543,
                "ns": 0,
                "title": "Rijksmuseum van Natuurlijke Historie",
                "lat": 52.158333333333,
                "lon": 4.4858333333333,
                "dist": 942.2,
                "primary": ""
            },
            {
                "pageid": 3110862,
                "ns": 0,
                "title": "Rijksmuseum van Oudheden",
                "lat": 52.158333333333,
                "lon": 4.4858333333333,
                "dist": 942.2,
                "primary": ""
            },
            {
                "pageid": 1754392,
                "ns": 0,
                "title": "Leiden University Library",
                "lat": 52.1575,
                "lon": 4.4811111111111,
                "dist": 1030.5,
                "primary": ""
            },
            {
                "pageid": 19074587,
                "ns": 0,
                "title": "Pieterskerk, Leiden",
                "lat": 52.1575,
                "lon": 4.4877777777778,
                "dist": 1063.5,
                "primary": ""
            },
            {
                "pageid": 42285864,
                "ns": 0,
                "title": "Holy Spirit Orphanage",
                "lat": 52.159083333333,
                "lon": 4.4941666666667,
                "dist": 1121.2,
                "primary": ""
            },
            {
                "pageid": 1858184,
                "ns": 0,
                "title": "Hortus Botanicus Leiden",
                "lat": 52.156111111111,
                "lon": 4.4841666666667,
                "dist": 1175.1,
                "primary": ""
            },
            {
                "pageid": 86373,
                "ns": 0,
                "title": "Leiden University",
                "lat": 52.156071,
                "lon": 4.486949,
                "dist": 1203.8,
                "primary": ""
            },
            {
                "pageid": 25111047,
                "ns": 0,
                "title": "Hooglandse Kerk",
                "lat": 52.158055555556,
                "lon": 4.4941666666667,
                "dist": 1209.5,
                "primary": ""
            },
            {
                "pageid": 24107224,
                "ns": 0,
                "title": "Leiden American Pilgrim Museum",
                "lat": 52.157689,
                "lon": 4.49363,
                "dist": 1220.6,
                "primary": ""
            },
            {
                "pageid": 44626995,
                "ns": 0,
                "title": "Museum Het Leids Wevershuis",
                "lat": 52.15992,
                "lon": 4.49835,
                "dist": 1269.7,
                "primary": ""
            },
            {
                "pageid": 798278,
                "ns": 0,
                "title": "Leiden Observatory",
                "lat": 52.155,
                "lon": 4.485,
                "dist": 1302.3,
                "primary": ""
            },
            {
                "pageid": 48801252,
                "ns": 0,
                "title": "Heilige Lodewijkkerk",
                "lat": 52.156027777778,
                "lon": 4.4916111111111,
                "dist": 1310.9,
                "primary": ""
            },
            {
                "pageid": 22787067,
                "ns": 0,
                "title": "Institute of Environmental Sciences",
                "lat": 52.165430555556,
                "lon": 4.4637111111111,
                "dist": 1345.3,
                "primary": ""
            },
            {
                "pageid": 33114206,
                "ns": 0,
                "title": "De Beukenhof",
                "lat": 52.176552777778,
                "lon": 4.4698861111111,
                "dist": 1431.5,
                "primary": ""
            },
            {
                "pageid": 12486089,
                "ns": 0,
                "title": "Zijlpoort (Leiden)",
                "lat": 52.161666666667,
                "lon": 4.5041666666667,
                "dist": 1525.9,
                "primary": ""
            },
            {
                "pageid": 35894664,
                "ns": 0,
                "title": "Hol Maren",
                "lat": 52.182615,
                "lon": 4.489491,
                "dist": 1822.4,
                "primary": ""
            },
            {
                "pageid": 2454764,
                "ns": 0,
                "title": "Siege of Leiden",
                "lat": 52.15,
                "lon": 4.4833,
                "dist": 1853.3,
                "primary": ""
            },
            {
                "pageid": 33474175,
                "ns": 0,
                "title": "Sportpark Hofbrouckerlaan",
                "lat": 52.184986111111,
                "lon": 4.487775,
                "dist": 2059.4,
                "primary": ""
            },
            {
                "pageid": 11818399,
                "ns": 0,
                "title": "Bonaventura College Burggravenlaan",
                "lat": 52.1548,
                "lon": 4.5079,
                "dist": 2132.9,
                "primary": ""
            },
            {
                "pageid": 23740017,
                "ns": 0,
                "title": "Corpus (museum)",
                "lat": 52.169722222222,
                "lon": 4.4519444444444,
                "dist": 2167.5,
                "primary": ""
            },
            {
                "pageid": 121167,
                "ns": 0,
                "title": "Oegstgeest",
                "lat": 52.183333333333,
                "lon": 4.4666666666667,
                "dist": 2173.9,
                "primary": ""
            },
            {
                "pageid": 15646212,
                "ns": 0,
                "title": "Leiden Lammenschans railway station",
                "lat": 52.147222222222,
                "lon": 4.4916666666667,
                "dist": 2235.7,
                "primary": ""
            },
            {
                "pageid": 42072166,
                "ns": 0,
                "title": "Stoomtrein Valkenburgse Meer",
                "lat": 52.159,
                "lon": 4.4429,
                "dist": 2886.7,
                "primary": ""
            },
            {
                "pageid": 384015,
                "ns": 0,
                "title": "De Vink railway station",
                "lat": 52.145833333333,
                "lon": 4.4577777777778,
                "dist": 2899.3,
                "primary": ""
            },
            {
                "pageid": 38401087,
                "ns": 0,
                "title": "Matilo",
                "lat": 52.1497,
                "lon": 4.5184,
                "dist": 3046.6,
                "primary": ""
            },
            {
                "pageid": 121141,
                "ns": 0,
                "title": "Leiderdorp",
                "lat": 52.166666666667,
                "lon": 4.5333333333333,
                "dist": 3410.2,
                "primary": ""
            },
            {
                "pageid": 39710002,
                "ns": 0,
                "title": "De Moerbei",
                "lat": 52.195052777778,
                "lon": 4.50295,
                "dist": 3428.1,
                "primary": ""
            },
            {
                "pageid": 121204,
                "ns": 0,
                "title": "Warmond",
                "lat": 52.197222222222,
                "lon": 4.5016666666667,
                "dist": 3620.2,
                "primary": ""
            },
            {
                "pageid": 38375787,
                "ns": 0,
                "title": "Praetorium Agrippinae",
                "lat": 52.1797,
                "lon": 4.4317,
                "dist": 3807.6,
                "primary": ""
            },
            {
                "pageid": 147295,
                "ns": 0,
                "title": "Valkenburg, South Holland",
                "lat": 52.179722222222,
                "lon": 4.4316666666667,
                "dist": 3810.6,
                "primary": ""
            },
            {
                "pageid": 121215,
                "ns": 0,
                "title": "Zoeterwoude",
                "lat": 52.133333333333,
                "lon": 4.5,
                "dist": 3877.1,
                "primary": ""
            },
            {
                "pageid": 121179,
                "ns": 0,
                "title": "Rijnsburg",
                "lat": 52.183333333333,
                "lon": 4.4333333333333,
                "dist": 3880.6,
                "primary": ""
            },
            {
                "pageid": 5817593,
                "ns": 0,
                "title": "Zoeterwoude-Rijndijk",
                "lat": 52.142222222222,
                "lon": 4.5255555555556,
                "dist": 3960.5,
                "primary": ""
            },
            {
                "pageid": 121201,
                "ns": 0,
                "title": "Voorschoten",
                "lat": 52.133333333333,
                "lon": 4.45,
                "dist": 4348.7,
                "primary": ""
            },
            {
                "pageid": 20949206,
                "ns": 0,
                "title": "Valkenburg Naval Air Base",
                "lat": 52.166666666667,
                "lon": 4.4191666666667,
                "dist": 4376.4,
                "primary": ""
            },
            {
                "pageid": 9578863,
                "ns": 0,
                "title": "Klinkenberg, South Holland",
                "lat": 52.206,
                "lon": 4.494,
                "dist": 4433.7,
                "primary": ""
            },
            {
                "pageid": 13620555,
                "ns": 0,
                "title": "American School of The Hague",
                "lat": 52.146111111111,
                "lon": 4.4222222222222,
                "dist": 4754.4,
                "primary": ""
            },
            {
                "pageid": 16302296,
                "ns": 0,
                "title": "Katwijk aan den Rijn",
                "lat": 52.1961,
                "lon": 4.42472,
                "dist": 5165.4,
                "primary": ""
            },
            {
                "pageid": 5817553,
                "ns": 0,
                "title": "Zoeterwoude-Dorp",
                "lat": 52.119166666667,
                "lon": 4.4966666666667,
                "dist": 5359.6,
                "primary": ""
            },
            {
                "pageid": 2200081,
                "ns": 0,
                "title": "Teylingen",
                "lat": 52.216666666667,
                "lon": 4.4833333333333,
                "dist": 5559.7,
                "primary": ""
            },
            {
                "pageid": 12201741,
                "ns": 0,
                "title": "Vrije en Lage Boekhorst",
                "lat": 52.195833333333,
                "lon": 4.55,
                "dist": 5583.8,
                "primary": ""
            },
            {
                "pageid": 19910140,
                "ns": 0,
                "title": "Voorschoten railway station",
                "lat": 52.126388888889,
                "lon": 4.4338888888889,
                "dist": 5607.3,
                "primary": ""
            },
            {
                "pageid": 16594913,
                "ns": 0,
                "title": "Kagerplassen",
                "lat": 52.205277777778,
                "lon": 4.5383333333333,
                "dist": 5700.2,
                "primary": ""
            },
            {
                "pageid": 5817565,
                "ns": 0,
                "title": "Westeinde, Zoeterwoude",
                "lat": 52.114722222222,
                "lon": 4.4858333333333,
                "dist": 5778.5,
                "primary": ""
            },
            {
                "pageid": 5852480,
                "ns": 0,
                "title": "Katwijk aan Zee",
                "lat": 52.2,
                "lon": 4.4166666666667,
                "dist": 5864.8,
                "primary": ""
            },
            {
                "pageid": 121135,
                "ns": 0,
                "title": "Katwijk",
                "lat": 52.2,
                "lon": 4.4166666666667,
                "dist": 5864.8,
                "primary": ""
            },
            {
                "pageid": 4220343,
                "ns": 0,
                "title": "Oud Ade",
                "lat": 52.183333333333,
                "lon": 4.5666666666667,
                "dist": 5977.1,
                "primary": ""
            },
            {
                "pageid": 121205,
                "ns": 0,
                "title": "Wassenaar",
                "lat": 52.15,
                "lon": 4.4,
                "dist": 5979.1,
                "primary": ""
            },
            {
                "pageid": 4220512,
                "ns": 0,
                "title": "Zevenhuizen, Kaag en Braassem",
                "lat": 52.198611111111,
                "lon": 4.5558333333333,
                "dist": 6086.9,
                "primary": ""
            },
            {
                "pageid": 121199,
                "ns": 0,
                "title": "Voorhout",
                "lat": 52.223055555556,
                "lon": 4.4863888888889,
                "dist": 6273.6,
                "primary": ""
            },
            {
                "pageid": 21450014,
                "ns": 0,
                "title": "Sassenheim railway station",
                "lat": 52.217222222222,
                "lon": 4.5261111111111,
                "dist": 6332.8,
                "primary": ""
            },
            {
                "pageid": 20264445,
                "ns": 0,
                "title": "Voorhout railway station",
                "lat": 52.224166666667,
                "lon": 4.4844444444444,
                "dist": 6394.1,
                "primary": ""
            },
            {
                "pageid": 5817572,
                "ns": 0,
                "title": "Zuidbuurt",
                "lat": 52.109444444444,
                "lon": 4.5052777777778,
                "dist": 6536.8,
                "primary": ""
            },
            {
                "pageid": 5817578,
                "ns": 0,
                "title": "Weipoort",
                "lat": 52.111111111111,
                "lon": 4.5216666666667,
                "dist": 6708.7,
                "primary": ""
            },
            {
                "pageid": 2155312,
                "ns": 0,
                "title": "Hoogmade",
                "lat": 52.166666666667,
                "lon": 4.5833333333333,
                "dist": 6820.4,
                "primary": ""
            },
            {
                "pageid": 14320062,
                "ns": 0,
                "title": "Nieuwe Kerk, Katwijk aan Zee",
                "lat": 52.202777777778,
                "lon": 4.3994444444444,
                "dist": 6988,
                "primary": ""
            },
            {
                "pageid": 2376628,
                "ns": 0,
                "title": "European Space Research and Technology Centre",
                "lat": 52.217222222222,
                "lon": 4.4213888888889,
                "dist": 7030.6,
                "primary": ""
            },
            {
                "pageid": 121185,
                "ns": 0,
                "title": "Sassenheim",
                "lat": 52.225833333333,
                "lon": 4.5225,
                "dist": 7100,
                "primary": ""
            },
            {
                "pageid": 13140273,
                "ns": 0,
                "title": "Universel Murad Hassil",
                "lat": 52.1936,
                "lon": 4.3886,
                "dist": 7119.7,
                "primary": ""
            },
            {
                "pageid": 4220559,
                "ns": 0,
                "title": "Kaag",
                "lat": 52.216666666667,
                "lon": 4.55,
                "dist": 7180.6,
                "primary": ""
            },
            {
                "pageid": 4893161,
                "ns": 0,
                "title": "Duinrell",
                "lat": 52.146666666667,
                "lon": 4.3811111111111,
                "dist": 7319.5,
                "primary": ""
            },
            {
                "pageid": 43614303,
                "ns": 0,
                "title": "Falcon (Duinrell)",
                "lat": 52.1477,
                "lon": 4.3792,
                "dist": 7410.2,
                "primary": ""
            },
            {
                "pageid": 12195681,
                "ns": 0,
                "title": "Stompwijk",
                "lat": 52.1,
                "lon": 4.4666666666667,
                "dist": 7499.8,
                "primary": ""
            },
            {
                "pageid": 121091,
                "ns": 0,
                "title": "Alkemade",
                "lat": 52.2,
                "lon": 4.58,
                "dist": 7561.3,
                "primary": ""
            },
            {
                "pageid": 968859,
                "ns": 0,
                "title": "Oude Rijn (Utrecht and South Holland)",
                "lat": 52.211944444444,
                "lon": 4.3983333333333,
                "dist": 7676,
                "primary": ""
            },
            {
                "pageid": 121164,
                "ns": 0,
                "title": "Noordwijk",
                "lat": 52.233333333333,
                "lon": 4.45,
                "dist": 7753.2,
                "primary": ""
            },
            {
                "pageid": 2155347,
                "ns": 0,
                "title": "Rijpwetering",
                "lat": 52.2,
                "lon": 4.5833333333333,
                "dist": 7760.2,
                "primary": ""
            },
            {
                "pageid": 121181,
                "ns": 0,
                "title": "Rijnwoude",
                "lat": 52.133333333333,
                "lon": 4.5833333333333,
                "dist": 7764.7,
                "primary": ""
            },
            {
                "pageid": 16288883,
                "ns": 0,
                "title": "Flower bulb cultivation in the Netherlands",
                "lat": 52.237777777778,
                "lon": 4.4752777777778,
                "dist": 7926.2,
                "primary": ""
            },
            {
                "pageid": 16285375,
                "ns": 0,
                "title": "Duin- en Bollenstreek",
                "lat": 52.2379,
                "lon": 4.4752,
                "dist": 7940.1,
                "primary": ""
            },
            {
                "pageid": 4242742,
                "ns": 0,
                "title": "Buitenkaag",
                "lat": 52.216666666667,
                "lon": 4.5666666666667,
                "dist": 7948.5,
                "primary": ""
            },
            {
                "pageid": 24006945,
                "ns": 0,
                "title": "Brittenburg",
                "lat": 52.212,
                "lon": 4.393,
                "dist": 7958,
                "primary": ""
            },
            {
                "pageid": 16730683,
                "ns": 0,
                "title": "Bent, Netherlands",
                "lat": 52.105833333333,
                "lon": 4.5569444444444,
                "dist": 8426,
                "primary": ""
            },
            {
                "pageid": 5817452,
                "ns": 0,
                "title": "Hazerswoude-Rijndijk",
                "lat": 52.129166666667,
                "lon": 4.5930555555556,
                "dist": 8569.5,
                "primary": ""
            },
            {
                "pageid": 1548352,
                "ns": 0,
                "title": "Ringvaart",
                "lat": 52.2316,
                "lon": 4.555,
                "dist": 8717.2,
                "primary": ""
            },
            {
                "pageid": 5817584,
                "ns": 0,
                "title": "Gelderswoude",
                "lat": 52.093333333333,
                "lon": 4.5313888888889,
                "dist": 8789.4,
                "primary": ""
            },
            {
                "pageid": 5817457,
                "ns": 0,
                "title": "Koudekerk aan den Rijn",
                "lat": 52.134722222222,
                "lon": 4.6019444444444,
                "dist": 8837.9,
                "primary": ""
            },
            {
                "pageid": 39698928,
                "ns": 0,
                "title": "Latour (restaurant)",
                "lat": 52.241016666667,
                "lon": 4.4278638888889,
                "dist": 9090.5,
                "primary": ""
            },
            {
                "pageid": 49521301,
                "ns": 0,
                "title": "Grand Hotel Huis ter Duin",
                "lat": 52.2414,
                "lon": 4.4281,
                "dist": 9122.6,
                "primary": ""
            },
            {
                "pageid": 31302235,
                "ns": 0,
                "title": "Huigsloot",
                "lat": 52.216111111111,
                "lon": 4.5969444444444,
                "dist": 9497.5,
                "primary": ""
            },
            {
                "pageid": 33273062,
                "ns": 0,
                "title": "Auberge De Kieviet",
                "lat": 52.122777777778,
                "lon": 4.3630555555556,
                "dist": 9548.7,
                "primary": ""
            },
            {
                "pageid": 36545544,
                "ns": 0,
                "title": "De Graaf van het Hoogveen",
                "lat": 52.247658333333,
                "lon": 4.4357361111111,
                "dist": 9572.1,
                "primary": ""
            },
            {
                "pageid": 49405709,
                "ns": 0,
                "title": "Noordwijk Lighthouse",
                "lat": 52.248722222222,
                "lon": 4.4339722222222,
                "dist": 9724.3,
                "primary": ""
            },
            {
                "pageid": 34779801,
                "ns": 0,
                "title": "Villa Rozenrust",
                "lat": 52.091955555556,
                "lon": 4.4089722222222,
                "dist": 9735.5,
                "primary": ""
            },
            {
                "pageid": 26296068,
                "ns": 0,
                "title": "Vliet (canal)",
                "lat": 52.090833333333,
                "lon": 4.4097222222222,
                "dist": 9815.9,
                "primary": ""
            },
            {
                "pageid": 4220648,
                "ns": 0,
                "title": "Nieuwe Wetering",
                "lat": 52.2,
                "lon": 4.6166666666667,
                "dist": 9817,
                "primary": ""
            },
            {
                "pageid": 12196524,
                "ns": 0,
                "title": "Veur",
                "lat": 52.083333333333,
                "lon": 4.4333333333333,
                "dist": 9875,
                "primary": ""
            }
        ]