 [{
            "pageid": 275252,
            "ns": 0,
            "title": "Station Leiden Centraal",
            "lat": 52.166388888889,
            "lon": 4.4822222222222,
            "dist": 81.8,
            "primary": ""
        }, {
            "pageid": 3829553,
            "ns": 0,
            "title": "Stationsdistrict",
            "lat": 52.166102777778,
            "lon": 4.4846694444444,
            "dist": 110.7,
            "primary": ""
        }, {
            "pageid": 2144503,
            "ns": 0,
            "title": "Stationspleintunnel",
            "lat": 52.165394444444,
            "lon": 4.4825,
            "dist": 152.5,
            "primary": ""
        }, {
            "pageid": 2729130,
            "ns": 0,
            "title": "Paviljoenshof",
            "lat": 52.165038888889,
            "lon": 4.4846,
            "dist": 200.6,
            "primary": ""
        }, {
            "pageid": 2646271,
            "ns": 0,
            "title": "Rijnsburgerbrug",
            "lat": 52.163955555556,
            "lon": 4.4843111111111,
            "dist": 308.8,
            "primary": ""
        }, {
            "pageid": 1696781,
            "ns": 0,
            "title": "Rijnsburgerpoort",
            "lat": 52.163869444444,
            "lon": 4.484325,
            "dist": 318.3,
            "primary": ""
        }, {
            "pageid": 1019003,
            "ns": 0,
            "title": "De Valk (Leiden)",
            "lat": 52.164444444444,
            "lon": 4.4866666666667,
            "dist": 335.8,
            "primary": ""
        }, {
            "pageid": 1670929,
            "ns": 0,
            "title": "Morssingel",
            "lat": 52.163597222222,
            "lon": 4.4819861111111,
            "dist": 353.5,
            "primary": ""
        }, {
            "pageid": 1689457,
            "ns": 0,
            "title": "Rijnsburgersingel",
            "lat": 52.164444444444,
            "lon": 4.4877777777778,
            "dist": 391.1,
            "primary": ""
        }, {
            "pageid": 213582,
            "ns": 0,
            "title": "Leids Universitair Medisch Centrum",
            "lat": 52.165902777778,
            "lon": 4.4776166666667,
            "dist": 399,
            "primary": ""
        }, {
            "pageid": 3608154,
            "ns": 0,
            "title": "Sint Salvatorhof",
            "lat": 52.163075,
            "lon": 4.4839888888889,
            "dist": 401.9,
            "primary": ""
        }, {
            "pageid": 292630,
            "ns": 0,
            "title": "Museum Volkenkunde",
            "lat": 52.163055555556,
            "lon": 4.4825,
            "dist": 405.6,
            "primary": ""
        }, {
            "pageid": 3829548,
            "ns": 0,
            "title": "Boerhaavedistrict",
            "lat": 52.170525,
            "lon": 4.4847555555556,
            "dist": 439.8,
            "primary": ""
        }, {
            "pageid": 2781625,
            "ns": 0,
            "title": "Trafficosaurus luminoso",
            "lat": 52.16835,
            "lon": 4.4773138888889,
            "dist": 451.2,
            "primary": ""
        }, {
            "pageid": 1751094,
            "ns": 0,
            "title": "Beestenmarkt (Leiden)",
            "lat": 52.1625,
            "lon": 4.485,
            "dist": 477.1,
            "primary": ""
        }, {
            "pageid": 2549934,
            "ns": 0,
            "title": "Oudt Leyden",
            "lat": 52.162358333333,
            "lon": 4.4846333333333,
            "dist": 487.2,
            "primary": ""
        }, {
            "pageid": 1701484,
            "ns": 0,
            "title": "Marepoort",
            "lat": 52.164367222222,
            "lon": 4.4894438888889,
            "dist": 489,
            "primary": ""
        }, {
            "pageid": 549276,
            "ns": 0,
            "title": "Museum De Lakenhal",
            "lat": 52.163055555556,
            "lon": 4.4875,
            "dist": 492,
            "primary": ""
        }, {
            "pageid": 655125,
            "ns": 0,
            "title": "Visser 't Hooft Lyceum",
            "lat": 52.170833333333,
            "lon": 4.4808333333333,
            "dist": 493.6,
            "primary": ""
        }]